<kml xmlns="http://www.opengis.net/kml/2.2"><Document><Placemark><name>City Palace</name><description>Udaipur, Rajasthan - After leaving Chittor due to its strategic disadvantage, the Sisodiya Rajputs established their new kingdom as the city of Udaipur and made it the capital of Mewar. The construction of the City Palace was started in 1559 by Maharana Udai Singh and was improved by his successors for the next 300 years.</description><Point><coordinates>73.6850,24.5760</coordinates></Point></Placemark><Placemark><name>Hampi</name><description>Hampi, Karnataka - Hampi is a UNESCO World Heritage Site and was once the capital of the Vijayanagara Empire. It is known for its ruins, temples, and intricate architecture.</description><Point><coordinates>76.4600,15.3350</coordinates></Point></Placemark><Placemark><name>Elephanta Caves</name><description>Mumbai, Maharashtra - The Elephanta Caves are a network of sculpted caves located on Elephanta Island, showcasing rock-cut architecture dedicated to Lord Shiva.</description><Point><coordinates>72.9312,18.9633</coordinates></Point></Placemark><Placemark><name>Taj Mahal</name><description>Agra, Uttar Pradesh - An iconic symbol of love, the Taj Mahal was built by Mughal Emperor Shah Jahan in memory of his wife Mumtaz Mahal.</description><Point><coordinates>78.0421,27.1751</coordinates></Point></Placemark><Placemark><name>Qutub Minar</name><description>Delhi, Delhi - Qutub Minar is a UNESCO World Heritage Site and the tallest brick minaret in the world, built in 1193 by Qutb-ud-din Aibak.</description><Point><coordinates>77.1855,28.5244</coordinates></Point></Placemark><Placemark><name>Sun Temple</name><description>Konark, Odisha - The Konark Sun Temple is a 13th-century temple dedicated to the sun god Surya and is famous for its chariot-shaped architecture.</description><Point><coordinates>86.0945,19.8876</coordinates></Point></Placemark><Placemark><name>Sanchi Stupa</name><description>Sanchi, Madhya Pradesh - The Great Stupa at Sanchi is one of the oldest stone structures in India and a major Buddhist monument built by Emperor Ashoka.</description><Point><coordinates>77.7395,23.4793</coordinates></Point></Placemark><Placemark><name>Mahabalipuram</name><description>Mahabalipuram, Tamil Nadu - Mahabalipuram is known for its rock-cut monuments and temples built during the Pallava dynasty, and is a UNESCO World Heritage Site.</description><Point><coordinates>80.1958,12.6208</coordinates></Point></Placemark><Placemark><name>Fatehpur Sikri</name><description>Fatehpur Sikri, Uttar Pradesh - Fatehpur Sikri was the capital of the Mughal Empire for a short period and is known for its stunning Mughal architecture.</description><Point><coordinates>77.6640,27.0944</coordinates></Point></Placemark><Placemark><name>Kaziranga National Park</name><description>Kaziranga, Assam - Kaziranga National Park is a UNESCO World Heritage Site famous for the largest population of the Indian one-horned rhinoceros.</description><Point><coordinates>93.3000,26.6000</coordinates></Point></Placemark></Document></kml>